{
   "data": [
      {
         "venue_id": 1,
         "name": "The Runners Shop",
         "address": "180 Bloor Street West",
         "city": "Toronto",
         "state": "Ontario",
         "country": "Canada",
         "zipcode": "M5C3C5",
         "phone": "555-123-4567",
         "website": "www.therunnersshop.com",
         "latitude": 43.668842,
         "longtitude": -79.394878,
         "created_ts": "",
         "update_ts": "",
         "merchant": {
            "id": 1,
            "name": "The Runners Shop",
            "email": "elaine@therunnersshop.com",
            "photo": {
               "url": "resources/img/sprites/runnersshop.jpg",
               "thumbnail_ios_small": {
                  "url": "resources/img/sprites/runnersshop.jpg"
               },
               "thumbnail_ios_medium": {
                  "url": "resources/img/sprites/runnersshop.jpg"
               }
            },
            "alt_photo": {
               "url": "http://photos.getkickbak.com/paella9finish1.jpg"
            },
            "account_first_name": "Elaine",
            "account_last_name": "McCrea",
            "phone": "555-321-6768",
            "qr_code": "",
            "created_ts": "",
            "update_ts": ""
         }
      }, {
         "venue_id": 2,
         "name": "The Tim Hortons Coffee",
         "address": "181 Bloor Street West",
         "city": "Toronto",
         "state": "Ontario",
         "country": "Canada",
         "zipcode": "M5C3C5",
         "phone": "555-123-5678",
         "website": "www.timhortons.com",
         "latitude": 43.668842,
         "longtitude": -79.394878,
         "created_ts": "",
         "update_ts": "",
         "merchant": {
            "id": 2,
            "name": "The Tim Hortons Coffee",
            "email": "elaine@timhortons.com",
            "photo": {
               "url": "resources/img/sprites/timhortons.jpg",
               "thumbnail_ios_small": {
                  "url": "resources/img/sprites/timhortons.jpg"
               },
               "thumbnail_ios_medium": {
                  "url": "resources/img/sprites/timhortons.jpg"
               }
            },
            "alt_photo": {
               "url": "http://photos.getkickbak.com/paella9finish1.jpg"
            },

            "account_first_name": "Tim",
            "account_last_name": "Hortons",
            "phone": "555-123-5678",
            "qr_code": "",
            "created_ts": "",
            "update_ts": ""
         }
      }, {
         "venue_id": 3,
         "name": "Photo Bo Ga",
         "address": "182 Bloor Street West",
         "city": "Toronto",
         "state": "Ontario",
         "country": "Canada",
         "zipcode": "M5C3C5",
         "phone": "555-234-5678",
         "website": "www.phoboga.com",
         "latitude": 43.668842,
         "longtitude": -79.394878,
         "created_ts": "",
         "update_ts": "",
         "merchant": {
            "id": 3,
            "name": "Pho Bo Ga",
            "email": "elaine@phogoga.com",
            "photo": {
               "url": "resources/img/sprites/phoboga.jpg",
               "thumbnail_ios_small": {
                  "url": "resources/img/sprites/phoboga.jpg"
               },
               "thumbnail_ios_medium": {
                  "url": "resources/img/sprites/phoboga.jpg"
               }
            },
            "alt_photo": {
               "url": "http://photos.getkickbak.com/paella9finish1.jpg"
            },
            "account_first_name": "Pho Bo",
            "account_last_name": "Ga",
            "phone": "555-234-5678",
            "qr_code": "",
            "created_ts": "",
            "update_ts": ""
         }
      }, {
         "venue_id": 4,
         "name": "Spring Rolls",
         "address": "183 Bloor Street West",
         "city": "Toronto",
         "state": "Ontario",
         "country": "Canada",
         "zipcode": "M5C3C5",
         "phone": "555-345-6789",
         "website": "www.springrolls.com",
         "latitude": 43.668842,
         "longtitude": -79.394878,
         "created_ts": "",
         "update_ts": "",
         "merchant": {
            "id": 4,
            "name": "Spring Rolls",
            "email": "elaine@springrolls.com",
            "photo": {
               "url": "resources/img/sprites/springrolls.jpg",
               "thumbnail_ios_small": {
                  "url": "resources/img/sprites/springrolls.jpg"
               },
               "thumbnail_ios_medium": {
                  "url": "resources/img/sprites/springrolls.jpg"
               }
            },
            "alt_photo": {
               "url": "http://photos.getkickbak.com/paella9finish1.jpg"
            },
            "account_first_name": "Spring",
            "account_last_name": "Rolls",
            "phone": "555-345-6789",
            "qr_code": "",
            "created_ts": "",
            "update_ts": ""
         }
      }
   ]
}
